

Mon Jan 23 11:47:18 CET 2012$IIGSA,,3,32,17,23,11,20,19,28,14,,,,,,1,*78
$IIGSV,2,1,24,32,86,046,50,11,71,056,46,01,66,349,35,20,61,239,40*64
$IIGSV,2,2,24,19,41,140,42,28,27,287,42,14,20,048,39,17,15,316,45*64
$IIZDA,104709,23,01,2012,,*55
$IIGGA,104709,3707.862,N,00649.799,W,2,08,1,-41,M,49,M,1,0000*7F
$IIVTG,000.0,T,002.0,M,0.0,N,0.0,K*5B
$IIDBT,3.4,f,1.04,M,0.56,F*10
$IIGLL,3707.862,N,00649.799,W,104710,A,D*47
$IIRMC,104710,A,3707.862,N,00649.799,W,0.0,000.0,230112,2,W,D*16
$IIDBT,73.2,f,22.32,M,12.20,F*27
$IIGLL,3707.863,N,00649.800,W,104711,A,D*48
$IIRMC,104711,A,3707.863,N,00649.800,W,0.0,000.0,230112,2,W,D*19
$IIDBT,12.1,f,3.69,M,2.01,F*2C
$IIGLL,3707.863,N,00649.800,W,104713,A,D*4A
$IIRMC,104713,A,3707.863,N,00649.801,W,0.0,000.0,230112,2,W,D*1A
$IIGGA,104714,3707.863,N,00649.801,W,2,08,1,-45,M,49,M,1,0000*78
$IIVTG,000.0,T,002.0,M,0.0,N,0.0,K*5B
$IIDBT,3.6,f,1.10,M,0.60,F*12
$IIGLL,3707.863,N,00649.800,W,104715,A,D*4C
$IIRMC,104715,A,3707.863,N,00649.800,W,0.0,000.0,230112,2,W,D*1D
$IIDBT,3.9,f,1.19,M,0.65,F*11
$IIGLL,3707.864,N,00649.802,W,104717,A,D*4B
$IIRMC,104717,A,3707.864,N,00649.804,W,0.0,000.0,230112,2,W,D*1C
$IIGSA,,3,32,17,23,11,20,19,28,14,,,,,,1,*78
$IIGSV,2,1,24,32,86,046,49,11,71,056,46,01,66,349,37,20,61,239,39*60
$IIGSV,2,2,24,19,41,140,42,28,27,287,39,14,20,048,37,17,15,316,45*66
$IIZDA,104719,23,01,2012,,*54
$IIGGA,104719,3707.864,N,00649.807,W,2,08,1,-45,M,49,M,1,0000*74
$IIVTG,000.0,T,002.0,M,0.0,N,0.0,K*5B
$IIDBT,12.8,f,3.90,M,2.13,F*20
$IIGLL,3707.864,N,00649.807,W,104720,A,D*4A
$IIRMC,104720,A,3707.864,N,00649.808,W,0.0,000.0,230112,2,W,D*14
$IIDBT,13.3,f,4.05,M,2.21,F*20
$IIGLL,3707.865,N,00649.809,W,104721,A,D*44
$IIRMC,104722,A,3707.865,N,00649.809,W,0.0,000.0,230112,2,W,D*16
$IIDBT,14.1,f,4.30,M,2.35,F*26
$IIGLL,3707.865,N,00649.810,W,104723,A,D*4E
$IIRMC,104723,A,3707.865,N,00649.810,W,0.0,000.0,230112,2,W,D*1F
$IIGGA,104724,3707.866,N,00649.811,W,2,08,1,-62,M,49,M,1,0000*7A
$IIVTG,000.0,T,002.0,M,0.0,N,0.0,K*5B
$IIDBT,13.1,f,3.99,M,2.18,F*2A
$IIGLL,3707.866,N,00649.811,W,104725,A,D*4A
$IIRMC,104725,A,3707.866,N,00649.811,W,0.0,000.0,230112,2,W,D*1B
$IIDBT,13.4,f,4.09,M,2.23,F*29
$IIGLL,3707.866,N,00649.813,W,104727,A,D*4A
$IIRMC,104727,A,3707.866,N,00649.813,W,0.0,000.0,230112,2,W,D*1B
$IIGSA,,3,32,17,23,11,20,19,28,14,,,,,,1,*78
$IIGSV,2,1,24,32,86,046,50,11,71,056,46,01,66,349,30,20,61,239,38*6E
$IIGSV,2,2,24,19,41,140,37,28,27,287,36,14,20,048,38,17,15,316,44*65
$IIZDA,104729,23,01,2012,,*57
$IIGGA,104729,3707.866,N,00649.813,W,2,08,1,-62,M,49,M,1,0000*75
$IIVTG,000.0,T,002.0,M,0.0,N,0.0,K*5B
$IIDBT,13.0,f,3.96,M,2.16,F*2A
$IIGLL,3707.866,N,00649.813,W,104730,A,D*4C
$IIRMC,104730,A,3707.865,N,00649.812,W,0.0,000.0,230112,2,W,D*1F
$IIDBT,13.0,f,3.96,M,2.16,F*2A
$IIGLL,3707.865,N,00649.812,W,104731,A,D*4F
$IIRMC,104732,A,3707.865,N,00649.812,W,0.0,000.0,230112,2,W,D*1D
$IIDBT,13.0,f,3.96,M,2.16,F*2A
$IIGLL,3707.865,N,00649.809,W,104733,A,D*47
$IIRMC,104733,A,3707.865,N,00649.809,W,0.0,000.0,230112,2,W,D*16
$IIGGA,104734,3707.865,N,00649.807,W,2,08,1,-58,M,49,M,1,0000*76
$IIVTG,000.0,T,002.0,M,0.0,N,0.0,K*5B
$IIDBT,13.0,f,3.96,M,2.16,F*2A
$IIGLL,3707.865,N,00649.806,W,104735,A,D*4E
$IIRMC,104735,A,3707.865,N,00649.806,W,0.0,000.0,230112,2,W,D*1F
$IIDBT,14.2,f,4.33,M,2.36,F*25
$IIGLL,3707.864,N,00649.803,W,104737,A,D*48
$IIRMC,104737,A,3707.864,N,00649.803,W,0.0,000.0,230112,2,W,D*19
$IIGSA,,3,32,17,23,11,20,19,28,14,,,,,,1,*78
$IIGSV,2,1,24,32,86,046,49,11,71,056,46,01,66,349,33,20,61,239,40*6A
$IIGSV,2,2,24,19,41,140,40,28,27,287,41,14,20,048,39,17,15,316,44*64
$IIZDA,104739,23,01,2012,,*56
$IIGGA,104739,3707.864,N,00649.801,W,2,08,1,-58,M,49,M,1,0000*7C
$IIVTG,000.0,T,002.0,M,0.0,N,0.0,K*5B
$IIDBT,13.1,f,3.99,M,2.18,F*2A
$IIGLL,3707*68
$IIDBT,11.3,f,3.45,M,1.88,F*21
$IIGLL,3707.863,N,00649.799,W,104743,A0*18
$IIDBT,13.2,f,4.02,M,2.20,F*27
$IIGLL,3707.863,N,00649.799,W,104745,A,D*46
$IIRMC,104745,A,3707.863,N,00649.799,W,0.0,000.0,230112,2,W,D*17
$IIDBT,12.8,f,3.90,M,2.13,F*20
$IIGLL,3707.863,N,00649.799,W,104747,A,D*44
$IIRMC,104747,A,3707.863,N,00649.799,W,0.0,000.0,230112,2,W,D*15
$IIGSA,,3,32,17,23,11,20,19,28,14,,,,,,1,*78
$IIGSV,2,1,24,32,86,046,48,11,71,056,45,01,66,349,35,20,61,239,40*6E
$IIGSV,2,2,24,19,41,140,41,28,27,287,41,14,20,048,39,17,15,316,44*65
$IIZDA,104749,23,01,2012,,*51
$IIGGA,104749,3707.863,N,00649.799,W,2,08,1,-38,M,49,M,1,0000*74
$IIVTG,000.0,T,002.0,M,0.0,N,0.0,K*5B
$IIDBT,13.0,f,3.96,M,2.16,F*2A
$IIGLL,3707.863,N,00649.799,W,104750,A,D*42
$IIRMC,104750,A,3707.863,N,00649.799,W,0.0,000.0,230112,2,W,D*13
$IIDBT,13.4,f,4.09,M,2.23,F*29
$IIGLL,3707.863,N,00649.799,W,104751,A,D*43
$IIRMC,104751,A,3707.863,N,00649.800,W,0.0,000.0,230112,2,W,D*1D
$IIDBT,13.3,f,4.05,M,2.21,F*20
$IIGLL,3707.863,N,00649.800,W,104753,A,D*4E
$IIRMC,104753,A,3707.863,N,00649.800,W,0.0,000.0,230112,2,W,D*1F
$IIGGA,104754,3707.864,N,00649.800,W,2,08,1,-44,M,49,M,1,0000*7B
$IIVTG,000.0,T,002.0,M,0.0,N,0.0,K*5B
$IIDBT,13.4,f,4.09,M,2.23,F*29
$IIGLL,3707.864,N,00649.800,W,104755,A,D*4F
$IIRMC,104755,A,3707.864,N,00649.800,W,0.0,000.0,230112,2,W,D*1E
$IIDBT,13.9,f,4.24,M,2.31,F*28
$IIGLL,3707.864,N,00649.800,W,104757,A,D*4D
$IIRMC,104757,A,3707.864,N,00649.800,W,0.0,000.0,230112,2,W,D*1C
$IIGSA,,3,32,17,23,11,20,19,28,14,,,,,,1,*78
$IIGSV,2,1,24,32,85,042,49,11,71,058,43,01,66,351,36,20,62,240,40*67
$IIGSV,2,2,24,19,41,140,37,28,27,286,37,14,20,048,36,17,16,316,44*68
$IIZDA,104759,23,01,2012,,*50
$IIGGA,104759,3707.864,N,00649.800,W,2,08,1,-44,M,49,M,1,0000*76
$IIVTG,000.0,T,002.0,M,0.0,N,0.0,K*5B
$IIDBT,13.7,f,4.18,M,2.28,F*21
$IIGLL,3707.866,N,00649.800,W,104800,A,D*42
$IIRMC,104800,A,3707.866,N,00649.800,W,0.0,000.0,230112,2,W,D*13
$IIDBT,13.4,f,4.09,M,2.23,F*29
$IIGLL,3707.866,N,00649.799,W,104801,A,D*4C
$IIRMC,104801,A,3707.866,N,00649.799,W,0.0,000.0,230112,2,W,D*1D
$IIDBT,13.4,f,4.09,M,2.23,F*29
$IIGLL,3707.865,N,00649.799,W,104803,A,D*4D
$IIRMC,104803,A,3707.865,N,00649.799,W,0.0,000.0,230112,2,W,D*1C
$IIGGA,104804,3707.865,N,00649.799,W,2,08,1,-43,M,49,M,1,0000*78
$IIVTG,000.0,T,002.0,M,0.0,N,0.0,K*5B
$IIDBT,13.7,f,4.18,M,2.28,F*21
$IIGLL,3707.865,N,00649.800,W,104805,A,D*44
$IIRMC,104805,A,3707.865,N,00649.800,W,0.0,000.0,230112,2,W,D*15
$IIDBT,13.5,f,4.12,M,2.25,F*24
$IIGLL,3707.865,N,00649.799,W,104807,A,D*49
$IIRMC,104807,A,3707.865,N,00649.799,W,0.0,000.0,230112,2,W,D*18
$IIGSA,,3,32,17,23,11,20,19,28,14,,,,,,1,*78
$IIGSV,2,1,24,32,85,042,49,11,71,058,46,01,66,351,35,20,62,240,41*60
$IIGSV,2,2,24,19,41,140,39,28,27,286,40,14,20,048,38,17,16,316,45*69
$IIZDA,104809,23,01,2012,,*5A
$IIGGA,104809,3707.865,N,00649.799,W,2,08,1,-43,M,49,M,1,0000*75
$IIVTG,000.0,T,002.0,M,0.0,N,0.0,K*5B
$IIDBT,13.0,f,3.96,M,2.16,F*2A
$IIGLL,3707.865,N,00649.799,W,104810,A,D*4F
$IIRMC,104810,A,3707.865,N,00649.799,W,0.0,000.0,230112,2,W,D*1E
$IIDBT,12.9,f,3.93,M,2.15,F*24
$IIGLL,3707.865,N,00649.799,W,104811,A,D*4E
$IIRMC,104811,A,3707.865,N,00649.799,W,0.0,000.0,230112,2,W,D*1F
$IIDBT,13.1,f,3.99,M,2.18,F*2A
$IIGLL,3707.865,N,00649.800,W,104813,A,D*43
$IIRMC,104813,A,3707.865,N,00649.800,W,0.0,000.0,230112,2,W,D*12
$IIGGA,104814,3707.865,N,00649.800,W,2,08,1,-44,M,49,M,1,0000*71
$IIVTG,000.0,T,002.0,M,0.0,N,0.0,K*5B
$IIDBT,12.3,f,3.75,M,2.05,F*27
$IIGLL,3707.865,N,00649.800,W,104815,A,D*45
$IIRMC,104815,A,3707.865,N,00649.800,W,0.0,000.0,230112,2,W,D*14
$IIDBT,13.6,f,4.15,M,2.26,F*23
$IIGLL,3707.865,N,00649.800,W,104817,A,D*47
$IIRMC,104817,A,3707.865,N,00649.800,W,0.0,000.0,230112,2,W,D*16
$IIGSA,,3,32,17,23,11,20,19,28,14,,,,,,1,*78
$IIGSV,2,1,24,32,85,042,49,11,71,059,45,01,66,352,35,20,62,240,40*60
$IIGSV,2,2,24,19,41,140,39,28,27,286,40,14,20,047,39,17,16,316,44*66
$IIZDA,104819,23,01,2012,,*5B
$IIGGA,104819,3707.865,N,00649.800,W,2,08,1,-44,M,49,M,1,0000*7C
$IIVTG,000.0,T,002.0,M,0.0,N,0.0,K*5B
$IIDBT,13.0,f,3.96,M,2.16,F*2A
$IIGLL,3707.865,N,00649.800,W,104820,A,D*43
$IIRMC,104820,A,3707.865,N,00649.800,W,0.0,000.0,230112,2,W,D*12
$IIDBT,13.0,f,3.96,M,2.16,F*2A
$IIGLL,3707.865,N,00649.800,W,104821,A,D*42
$IIRMC,104821,A,3707.865,N,00649.800,W,0.0,000.0,230112,2,W,D*13
$IIDBT,13.4,f,4.09,M,2.23,F*29
$IIGLL,3707.865,N,00649.800,W,104823,A,D*40
$IIRMC,104823,A,3707.865,N,00649.800,W,0.0,000.0,230112,2,W,D*11
$IIGGA,104824,3707.865,N,00649.800,W,2,08,1,-43,M,49,M,1,0000*75
$IIVTG,000.0,T,002.0,M,0.0,N,0.0,K*5B
$IIDBT,13.5,f,4.12,M,2.25,F*24
$IIGLL,3707.864,N,00649.799,W,104825,A,D*48
$IIRMC,104825,A,3707.864,N,00649.799,W,0.0,000.0,230112,2,W,D*19
$IIDBT,13.9,f,4.24,M,2.31,F*28
$IIGLL,3707.863,N,00649.798,W,104827,A,D*4C
$IIRMC,104827,A,3707.863,N,00649.798,W,0.0,000.0,230112,2,W,D*1D
$IIGSA,,3,32,17,23,11,20,19,28,14,,,,,,1,*78
$IIGSV,2,1,24,32,85,041,49,11,71,059,46,01,66,352,28,20,62,240,40*6C
$IIGSV,2,2,24,19,41,140,39,28,27,286,41,14,20,047,39,17,16,316,44*67
$IIZDA,104829,23,01,2012,,*58
$IIGGA,104829,3707.863,N,00649.798,W,2,08,1,-43,M,49,M,1,0000*70
$IIVTG,000.0,T,002.0,M,0.0,N,0.0,K*5B
$IIDBT,13.7,f,4.18,M,2.28,F*21
$IIGLL,3707.863,N,00649.799,W,104830,A,D*4B
$IIRMC,104830,A,3707.863,N,00649.799,W,0.0,000.0,230112,2,W,D*1A
$IIDBT,13.3,f,4.05,M,2.21,F*20
$IIGLL,3707.863,N,00649.799,W,104831,A,D*4A
$IIRMC,104831,A,3707.863,N,00649.799,W,0.0,000.0,230112,2,W,D*1B
$IIDBT,13.6,f,4.15,M,2.26,F*23
$IIGLL,3707.863,N,00649.799,W,104833,A,D*48
$IIRMC,104833,A,3707.863,N,00649.799,W,0.0,000.0,230112,2,W,D*19
$IIGGA,104834,3707.863,N,00649.799,W,2,08,1,-41,M,49,M,1,0000*7F
$IIVTG,000.0,T,002.0,M,0.0,N,0.0,K*5B
$IIDBT,13.3,f,4.05,M,2.21,F*20
$IIGLL,3707.863,N,00649.799,W,104835,A,D*4E
$IIRMC,104835,A,3707.863,N,00649.799,W,0.0,000.0,230112,2,W,D*1F
$IIDBT,13.2,f,4.02,M,2.20,F*27
$IIGLL,3707.863,N,00649.799,W,104837,A,D*4C
$IIRMC,104837,A,3707.863,N,00649.799,W,0.0,000.0,230112,2,W,D*1D
$IIGSA,,3,32,17,23,11,20,19,28,14,,,,,,1,*78
$IIGSV,2,1,24,32,85,041,48,11,71,059,46,01,66,352,35,20,62,240,38*6E
$IIGSV,2,2,24,19,41,140,37,28,27,286,40,14,20,047,37,17,16,316,44*66
$IIZDA,104839,23,01,2012,,*59
$IIGGA,104839,3707.863,N,00649.798,W,2,08,1,-41,M,49,M,1,0000*73
$IIVTG,000.0,T,002.0,M,0.0,N,0.0,K*5B
$IIDBT,13.2,f,4.02,M,2.20,F*27
$IIGLL,3707.863,N,00649.798,W,104840,A,D*4D
$IIRMC,104840,A,3707.863,N,00649.798,W,0.0,000.0,230112,2,W,D*1C
$IIDBT,13.2,f,4.02,M,2.20,F*27
$IIGLL,3707.863,N,00649.799,W,104840,A,D*4C
$IIRMC,104840,A,3707.863,N,00649.799,W,0.0,000.0,230112,2,W,D*1D
$IIDBT,13.3,f,4.05,M,2.21,F*20
$IIGLL,3707.863,N,00649.799,W,104842,A,D*4E
$IIRMC,104842,A,3707.863,N,00649.799,W,0.0,000.0,230112,2,W,D*1F
$IIGGA,104843,3707.863,N,00649.797,W,2,08,1,-40,M,49,M,1,0000*70
$IIVTG,000.0,T,002.0,M,0.0,N,0.0,K*5B
$IIDBT,12.2,f,3.72,M,2.03,F*27
$IIGLL,3707.863,N,00649.797,W,104844,A,D*46
$IIRMC,104844,A,3707.863,N,00649.797,W,0.0,000.0,230112,2,W,D*17
$IIDBT,13.0,f,3.96,M,2.16,F*2A
$IIGLL,3707.863,N,00649.797,W,104846,A,D*44
$IIRMC,104846,A,3707.863,N,00649.797,W,0.0,000.0,230112,2,W,D*15
$IIGSA,,3,32,17,23,11,20,19,28,14,,,,,,1,*78
$IIZDA,104848,23,01,2012,,*5F
$IIRMC,104850,A,3707.863,N,00649.798,W,0.0,000.0,230112,2,W,D*1D
$IIDBT,12.9,f,3.93,M,2.15,F*24
$IIGLL,3707.863,N,00649.798,W,104852,A,D*4E
$IIVTG,000.0,T,002.0,M,0.0,N,0.0,K*5B
$IIDBT,13.1,f,3.99,M,2.18,F*2A
$IIGLL,3707.864,N,00649.799,W,104854,A,D*4E
$IIRMC,104854,A,3707.864,N,00649.799,W,0.0,000.0,230112,2,W,D*1F
$IIDBT,14.2,f,4.33,M,2.36,F*25
$IIGLL,3707.864,N,00649.799,W,104856,A,D*4C
$IIRMC,104856,A,3707.864,N,00649.799,W,0.0,000.0,230112,2,W,D*1D
$IIGSA,,3,32,17,23,11,20,19,28,14,,,,,,1,*78
$IIGSV,2,1,24,32,85,041,49,11,71,059,47,01,66,352,36,20,62,240,40*62
$IIGSV,2,2,24,19,40,140,40,28,27,285,41,14,20,047,39,17,16,316,44*6B
$IIZDA,104858,23,01,2012,,*5E
$IIGGA,104858,3707.864,N,00649.799,W,2,08,1,-38,M,49,M,1,0000*7C
$IIVTG,000.0,T,002.0,M,0.0,N,0.0,K*5B
$IIDBT,14.1,f,4.30,M,2.35,F*26
$IIGLL,3707.864,N,00649.799,W,104859,A,D*43
$IIRMC,104859,A,3707.864,N,00649.799,W,0.0,000.0,230112,2,W,D*12
$IIDBT,13.1,f,3.99,M,2.18,F*2A
$IIGLL,3707.864,N,00649.799,W,104900,A,D*4E
$IIRMC,104900,A,3707.864,N,00649.799,W,0.0,000.0,230112,2,W,D*1F
$IIDBT,13.0,f,3.96,M,2.16,F*2A
$IIGLL,3707.864,N,00649.799,W,104902,A,D*4C
$IIRMC,104902,A,3707.864,N,00649.799,W,0.0,000.0,230112,2,W,D*1D
$IIGGA,104903,3707.864,N,00649.799,W,2,08,1,-37,M,49,M,1,0000*7C
$IIVTG,000.0,T,002.0,M,0.0,N,0.0,K*5B
$IIDBT,13.1,f,3.99,M,2.18,F*2A
$IIGLL,3707.864,N,00649.799,W,104904,A,D*4A
$IIRMC,104904,A,3707.864,N,00649.799,W,0.0,000.0,230112,2,W,D*1B
$IIDBT,13.6,f,4.15,M,2.26,F*23
$IIGLL,3707.864,N,00649.799,W,104906,A,D*48
$IIRMC,104906,A,3707.864,N,00649.800,W,0.0,000.0,230112,2,W,D*16
$IIGSA,,3,32,17,23,11,20,19,28,14,,,,,,1,*78
$IIGSV,2,1,24,32,85,041,49,11,71,059,46,01,66,352,35,20,62,240,37*60
$IIGSV,2,2,24,19,40,140,39,28,27,285,42,14,20,047,40,17,16,316,45*69
$IIZDA,104908,23,01,2012,,*5A
$IIGGA,104908,3707.864,N,00649.801,W,2,08,1,-37,M,49,M,1,0000*79
$IIVTG,000.0,T,002.0,M,0.0,N,0.0,K*5B
$IIDBT,13.1,f,3.99,M,2.18,F*2A
$IIGLL,3707.864,N,00649.801,W,104909,A,D*49
$IIRMC,104909,A,3707.864,N,00649.801,W,0.0,000.0,230112,2,W,D*18
$IIDBT,13.3,f,4.05,M,2.21,F*20
$IIGLL,3707.864,N,00649.801,W,104910,A,D*41
$IIRMC,104910,A,3707.864,N,00649.801,W,0.0,000.0,230112,2,W,D*10
$IIDBT,13.3,f,4.05,M,2.21,F*20
$IIGLL,3707.864,N,00649.801,W,104912,A,D*43
$IIRMC,104912,A,3707.864,N,00649.800,W,0.0,000.0,230112,2,W,D*13
$IIGGA,104913,3707.864,N,00649.800,W,2,08,1,-35,M,49,M,1,0000*70
$IIVTG,000.0,T,002.0,M,0.0,N,0.0,K*5B
$IIDBT,13.3,f,4.05,M,2.21,F*20
$IIGLL,3707.864,N,00649.800,W,104914,A,D*44
$IIRMC,104914,A,3707.864,N,00649.800,W,0.0,000.0,230112,2,W,D*15
$IIDBT,13.8,f,4.21,M,2.30,F*2D
$IIGLL,3707.864,N,00649.800,W,104916,A,D*46
$IIRMC,104916,A,3707.864,N,00649.800,W,0.0,000.0,230112,2,W,D*17
$IIGSA,,3,32,17,23,11,20,19,28,14,,,,,,1,*78
$IIGSV,2,1,24,32,85,040,49,11,71,060,46,01,66,353,36,20,62,241,36*69
$IIGSV,2,2,24,19,40,140,37,28,27,285,41,14,19,047,38,17,16,316,45*61
$IIZDA,104918,23,01,2012,,*5B
$IIGGA,104918,3707.864,N,00649.799,W,2,08,1,-35,M,49,M,1,0000*74
$IIVTG,000.0,T,002.0,M,0.0,N,0.0,K*5B
$IIDBT,15.0,f,4.57,M,2.50,F*24
$IIGLL,3707.864,N,00649.799,W,104919,A,D*46
$IIRMC,104919,A,3707.864,N,00649.799,W,0.0,000.0,230112,2,W,D*17
$IIDBT,13.6,f,4.15,M,2.26,F*23
$IIGLL,3707.863,N,00649.799,W,104920,A,D*4B
$IIRMC,104920,A,3707.863,N,00649.799,W,0.0,000.0,230112,2,W,D*1A
$IIDBT,14.2,f,4.33,M,2.36,F*25
$IIGLL,3707.863,N,00649.798,W,104922,A,D*48
$IIRMC,104922,A,3707.863,N,00649.798,W,0.0,000.0,230112,2,W,D*19
$IIGGA,104923,3707.863,N,00649.798,W,2,08,1,-34,M,49,M,1,0000*7B
$IIVTG,000.0,T,002.0,M,0.0,N,0.0,K*5B
$IIDBT,13.6,f,4.15,M,2.26,F*23
$IIGLL,3707.862,N,00649.797,W,104924,A,D*40
$IIRMC,104924,A,3707.862,N,00649.797,W,0.0,000.0,230112,2,W,D*11
$IIDBT,13.1,f,3.99,M,2.18,F*2A
$IIGLL,3707.862,N,00649.797,W,104926,A,D*42
$IIRMC,104926,A,3707.862,N,00649.797,W,0.0,000.0,230112,2,W,D*13
$IIGSA,,3,32,17,23,11,20,19,28,14,,,,,,1,*78
$IIGSV,2,1,24,32,85,040,48,11,71,060,46,01,66,353,34,20,62,241,40*6B
$IIGSV,2,2,24,19,40,140,38,28,27,285,43,14,19,047,41,17,16,316,45*62
$IIZDA,104928,23,01,2012,,*58
$IIGGA,104928,3707.863,N,00649.798,W,2,08,1,-34,M,49,M,1,0000*70
$IIVTG,000.0,T,002.0,M,0.0,N,0.0,K*5B
$IIDBT,13.2,f,4.02,M,2.20,F*27
$IIGLL,3707.863,N,00649.798,W,104929,A,D*43
$IIRMC,104929,A,3707.863,N,00649.798,W,0.0,000.0,230112,2,W,D*12
$IIDBT,13.2,f,4.02,M,2.20,F*27
$IIGLL,3707.863,N,00649.798,W,104930,A,D*4B
$IIRMC,104930,A,3707.863,N,00649.798,W,0.0,000.0,230112,2,W,D*1A
$IIDBT,13.0,f,3.96,M,2.16,F*2A
$IIGLL,3707.863,N,00649.798,W,104932,A,D*49
$IIRMC,104932,A,3707.863,N,00649.798,W,0.0,000.0,230112,2,W,D*18
$IIGGA,104933,3707.863,N,00649.798,W,2,08,1,-36,M,49,M,1,0000*78
$IIVTG,000.0,T,002.0,M,0.0,N,0.0,K*5B
$IIDBT,13.1,f,3.99,M,2.18,F*2A
$IIGLL,3707.863,N,00649.798,W,104934,A,D*4F
$IIRMC,104934,A,3707.863,N,00649.798,W,0.0,000.0,230112,2,W,D*1E
$IIDBT,5.4,f,1.65,M,0.90,F*1B
$IIGLL,3707.863,N,00649.798,W,104936,A,D*4D
$IIRMC,104936,A,3707.863,N,00649.798,W,0.0,000.0,230112,2,W,D*1C
$IIGSA,,3,32,17,23,11,20,19,28,14,,,,,,1,*78
$IIGSV,2,1,24,32,85,040,48,11,71,060,46,01,66,353,32,20,62,241,38*62
$IIGSV,2,2,24,19,40,140,36,28,27,285,43,14,19,047,40,17,16,316,44*6C
$IIZDA,104938,23,01,2012,,*59
$IIGGA,104938,3707.863,N,00649.798,W,2,08,1,-36,M,49,M,1,0000*73
$IIVTG,000.0,T,002.0,M,0.0,N,0.0,K*5B
$IIDBT,13.5,f,4.12,M,2.25,F*24
$IIGLL,3707.863,N,00649.798,W,104939,A,D*42
$IIRMC,104939,A,3707.863,N,00649.798,W,0.0,000.0,230112,2,W,D*13
$IIDBT,13.2,f,4.02,M,2.20,F*27
$IIGLL,3707.863,N,00649.798,W,104940,A,D*4C
$IIRMC,104940,A,3707.863,N,00649.798,W,0.0,000.0,230112,2,W,D*1D
$IIDBT,13.9,f,4.24,M,2.31,F*28
$IIGLL,3707.863,N,00649.798,W,104942,A,D*4E
$IIRMC,104942,A,3707.863,N,00649.798,W,0.0,000.0,230112,2,W,D*1F
$IIGGA,104943,3707.863,N,00649.798,W,2,08,1,-36,M,49,M,1,0000*7F
$IIVTG,000.0,T,002.0,M,0.0,N,0.0,K*5B
$IIDBT,13.8,f,4.21,M,2.30,F*2D
$IIGLL,3707.863,N,00649.798,W,104944,A,D*48
$IIRMC,104944,A,3707.863,N,00649.798,W,0.0,000.0,230112,2,W,D*19
$IIDBT,14.1,f,4.30,M,2.35,F*26
$IIGLL,3707.863,N,00649.798,W,104946,A,D*4A
$IIRMC,104946,A,3707.863,N,00649.798,W,0.0,000.0,230112,2,W,D*1B
$IIGSA,,3,32,17,23,11,20,19,28,14,,,,,,1,*78
$IIGSV,2,1,24,32,84,039,49,11,71,061,46,01,66,353,34,20,62,241,39*6A
$IIGSV,2,2,24,19,40,140,35,28,27,285,41,14,19,047,40,17,16,316,45*6C
$IIZDA,104948,23,01,2012,,*5E
$IIGGA,104948,3707.863,N,00649.798,W,2,08,1,-36,M,49,M,1,0000*74
$IIVTG,000.0,T,002.0,M,0.0,N,0.0,K*5B
$IIDBT,13.0,f,3.96,M,2.16,F*2A
$IIGLL,3707.863,N,00649.798,W,104949,A,D*45


Sun Feb 05 20:40:37 CET 2012$GPVTG,360.0,T,002.4,M,000.0,N,000.0,K*4D
$GPRMC,194029,A,3645.42,N,00236.29,W,000.0,360.0,050212,002.4,W*78
$GPRMB,A,4.28,R,062,061,3642.93,N,00209.45,W,021.7,096.5,,V*14
$GPWPL,3642.74,N,00212.36,W,062*69
$GPWPL,3642.93,N,00209.45,W,061*6D
$GPGLL,3645.42,N,00236.29,W*77
$GPVTG,360.0,T,002.4,M,000.0,N,000.0,K*4D
$GPRMC,194030,A,3645.42,N,00236.29,W,000.0,360.0,050212,002.4,W*70
$GPRMB,A,4.28,R,062,061,3642.93,N,00209.45,W,021.7,096.5,,V*14
$GPWPL,3642.74,N,00212.36,W,062*69
$GPWPL,3642.93,N,00209.45,W,061*6D
$GPGLL,3645.42,N,00236.29,W*77
$GPVTG,360.0,T,002.4,M,000.0,N,000.0,K*4D
$GPRMC,194031,A,3645.42,N,00236.29,W,000.0,360.0,050212,002.4,W*71
$GPRMB,A,4.28,R,062,061,3642.93,N,00209.45,W,021.7,096.5,,V*14
$GPWPL,3642.74,N,00212.36,W,062*69
$GPWPL,3642.93,N,00209.45,W,061*6D
$GPGLL,3645.42,N,00236.29,W*77
$GPVTG,360.0,T,002.4,M,000.0,N,000.0,K*4D
$GPRMC,194032,A,3645.42,N,00236.29,W,000.0,360.0,050212,002.4,W*72
$GPRMB,A,4.28,R,062,061,3642.93,N,00209.45,W,021.7,096.5,,V*14
$GPWPL,3642.74,N,00212.36,W,062*69
$GPWPL,3642.93,N,00209.45,W,061*6D
$GPGLL,3645.42,N,00236.29,W*77
$GPVTG,360.0,T,002.4,M,000.0,N,000.0,K*4D
$GPRMC,194033,A,3645.42,N,00236.29,W,000.0,360.0,050212,002.4,W*73
$GPRMB,A,4.28,R,062,061,3642.93,N,00209.45,W,021.7,096.5,,V*14
$GPWPL,3642.74,N,00212.36,W,062*69
$GPWPL,3642.93,N,00209.45,W,061*6D
$GPGLL,3645.42,N,00236.29,W*77
$GPVTG,360.0,T,002.4,M,000.0,N,000.0,K*4D
$GPRMC,194034,A,3645.42,N,00236.29,W,000.0,360.0,050212,002.4,W*74
$GPRMB,A,4.28,R,062,061,3642.93,N,00209.45,W,021.7,096.5,,V*14
$GPWPL,3642.74,N,00212.36,W,062*69
$GPWPL,3642.93,N,00209.45,W,061*6D
$GPGLL,3645.42,N,00236.29,W*77
$GPVTG,360.0,T,002.4,M,000.0,N,000.0,K*4D
$GPRMC,194035,A,3645.42,N,00236.29,W,000.0,360.0,050212,002.4,W*75
$GPRMB,A,4.28,R,062,061,3642.93,N,00209.45,W,021.7,096.5,,V*14
$GPWPL,3642.74,N,00212.36,W,062*69
$GPWPL,3642.93,N,00209.45,W,061*6D
$GPGLL,3645.42,N,00236.29,W*77
$GPVTG,360.0,T,002.4,M,000.0,N,000.0,K*4D
$GPRMC,194036,A,3645.42,N,00236.29,W,000.0,360.0,050212,002.4,W*76
$GPRMB,A,4.28,R,062,061,3642.93,N,00209.45,W,021.7,096.5,,V*14
$GPWPL,3642.74,N,00212.36,W,062*69
$GPWPL,3642.93,N,00209.45,W,061*6D
$GPGLL,3645.42,N,00236.29,W*77
$GPVTG,360.0,T,002.4,M,000.0,N,000.0,K*4D
$GPRMC,194037,A,3645.42,N,00236.29,W,000.0,360.0,050212,002.4,W*77
$GPRMB,A,4.28,R,062,061,3642.93,N,00209.45,W,021.7,096.5,,V*14
$GPWPL,3642.74,N,00212.36,W,062*69
$GPWPL,3642.93,N,00209.45,W,061*6D
$GPGLL,3645.42,N,00236.29,W*77
$GPVTG,360.0,T,002.4,M,000.0,N,000.0,K*4D
$GPRMC,194038,A,3645.42,N,00236.29,W,000.0,360.0,050212,002.4,W*78
$GPRMB,A,4.28,R,062,061,3642.93,N,00209.45,W,021.7,096.5,,V*14
$GPWPL,3642.74,N,00212.36,W,062*69
$GPWPL,3642.93,N,00209.45,W,061*6D
$GPGLL,3645.42,N,00236.29,W*77
$GPVTG,360.0,T,002.4,M,000.0,N,000.0,K*4D
$GPRMC,194039,A,3645.42,N,00236.29,W,000.0,360.0,050212,002.4,W*79
$GPRMB,A,4.28,R,062,061,3642.93,N,00209.45,W,021.7,096.5,,V*14
$GPWPL,3642.74,N,00212.36,W,062*69
$GPWPL,3642.93,N,00209.45,W,061*6D
$GPGLL,3645.42,N,00236.29,W*77
$GPVTG,360.0,T,002.4,M,000.0,N,000.0,K*4D
$GPRMC,194040,A,3645.42,N,00236.29,W,000.0,360.0,050212,002.4,W*77
$GPRMB,A,4.28,R,062,061,3642.93,N,00209.45,W,021.7,096.5,,V*14
$GPWPL,3642.74,N,00212.36,W,062*69
$GPWPL,3642.93,N,00209.45,W,061*6D
$GPGLL,3645.42,N,00236.29,W*77
$GPVTG,360.0,T,002.4,M,000.0,N,000.0,K*4D
$GPRMC,194041,A,3645.42,N,00236.29,W,000.0,360.0,050212,002.4,W*76
$GPRMB,A,4.28,R,062,061,3642.93,N,00209.45,W,021.7,096.5,,V*14
$GPWPL,3642.74,N,00212.36,W,062*69
$GPWPL,3642.93,N,00209.45,W,061*6D
$GPGLL,3645.42,N,00236.29,W*77
$GPVTG,360.0,T,002.4,M,000.0,N,000.0,K*4D
